{
  "type" : "FeatureCollection", 
  "features" : [
    {
      "type" : "Feature", 
      "geometry" : 
      {
        "type" : "Point", 
        "coordinates" : [
          -77.884305, 44.200633
        ]
      }, 
      "properties" : {
        "Name" : "7 Hills Community Pantry - 7 Hills Community Pantry", 
        "Address" : "60 Main St", 
        "City" : "Trent Hills", 
        "Province" : "ON", 
        "Hours" : "Fri 11 am-12:30 pmDates: All YearMeetings: Board meets monthly", 
        "Phone" : "705-924-2077", 
        "Description" : "\u003cb\u003eCOVID19\u003c/b\u003eOperating as a call in and pick up operation. * Those in need in Warkworth and area can call 705-924-2077 and leave a message of what they require. Leave name and phone number to arrange time for order pick up at food bank door. * Please make arrangement for someone else to pick order up if they are feeling ill. Provides food for those in need.", 
        "Eligbility" : "No restrictions\u003cbr /\u003e\u003cbr /\u003eResidency Requirements: Warkworth and surrounding area", 
        "DisabilityAccess" : "Fully Accessible"
      }
    }, 
    {
      "type" : "Feature", 
      "geometry" : 
      {
        "type" : "Point", 
        "coordinates" : [
          -78.077844, 44.166839
        ]
      }, 
      "properties" : {
        "Name" : "Alderville First Nation - Alderville Community Food Bank", 
        "Address" : "8467 County Rd 45", 
        "City" : "Alnwick/Haldimand", 
        "Province" : "ON", 
        "Hours" : "\u003cb\u003eCOVID19\u003c/b\u003e  Hours vary daily. Call ahead for food needs.Dates: Year round", 
        "Phone" : "905-352-2140", 
        "Description" : "\u003cb\u003eCOVID19\u003c/b\u003e Food orders will be filled and box of food will be left outside for pick up at arranged time.Community Food bank", 
        "Eligbility" : "First Nation community. * Low income and or OW/ODSP recipients.", 
        "DisabilityAccess" : "Fully Accessible"
      }
    }, 
    {
      "type" : "Feature", 
      "geometry" : 
      {
        "type" : "Point", 
        "coordinates" : [
          -77.883614, 44.006443
        ]
      }, 
      "properties" : {
        "Name" : "Blessing Cupboard, Colborne", 
        "Address" : "75 King Street East", 
        "City" : "Colborne", 
        "Province" : "ON", 
        "Hours" : "Sunday 11:30 am – 12:00 noon", 
        "Phone" : "905-355-2408, 905-207-0059", 
        "Description" : "Prospect Community Church", 
        "Eligbility" : null, 
        "DisabilityAccess" : null
      }
    }, 
    {
      "type" : "Feature", 
      "geometry" : 
      {
        "type" : "Point", 
        "coordinates" : [
          -77.73298, 44.042142
        ]
      }, 
      "properties" : {
        "Name" : "Brighton Fare Share Food Bank - Brighton Fare Share Food Bank", 
        "Address" : "39 A Elizabeth St", 
        "City" : "Brighton", 
        "Province" : "ON", 
        "Hours" : "Food Distribution: first, second, fourth, fifth Mon of the month 9 am-12 noon * third Mon of the month 5:30 pm-8 pmFood Donations accepted: Wed 9 am-12 noonDates: All Year", 
        "Phone" : null, 
        "Description" : "\u003cb\u003eCOVID19\u003c/b\u003e Food Bank remains open but clients will have their food brought to their car in the parking lot in a grocery cart.\n\u003cbr\u003e\n\u003cbr\u003eFood assistance to those in need", 
        "Eligbility" : "Residents of The Municipality of Brighton", 
        "DisabilityAccess" : "Partially Accessible - Parking - Not Accessible; Entrance - Useable; Washrooms - Not Accessible"
      }
    }, 
    {
      "type" : "Feature", 
      "geometry" : 
      {
        "type" : "Point", 
        "coordinates" : [
          -77.796748, 44.307359
        ]
      }, 
      "properties" : {
        "Name" : "Campbellford Fare Share Food Bank", 
        "Address" : "28 Doxsee Avenue South (rear of building)", 
        "City" : "Campbellford", 
        "Province" : "ON", 
        "Hours" : "Wednesday, 9:00 am – 11:30 am", 
        "Phone" : "705-653-1930", 
        "Description" : "COVID19 Food bank remains open * one person at a time \n \nProvide food assistance to those in need \n* Offers information about other services and encouragement \n* Works together with area churches, the Salvation Army and Northumberland United Way to offer this service \n* Emergency services available.", 
        "Eligbility" : null, 
        "DisabilityAccess" : null
      }
    }, 
    {
      "type" : "Feature", 
      "geometry" : 
      {
        "type" : "Point", 
        "coordinates" : [
          -78.316519, 43.956405
        ]
      }, 
      "properties" : {
        "Name" : "Community Health Centres of Northumberland - Food Cupboard", 
        "Address" : "99 Toronto Road", 
        "City" : "Port Hope", 
        "Province" : "ON", 
        "Hours" : "By appointment only, Thursdays 1:30 pm to 4:00 pm.", 
        "Phone" : "905-885-2626 ext. 212", 
        "Description" : "By appointment only. 1 person in the office at a time", 
        "Eligbility" : null, 
        "DisabilityAccess" : null
      }
    }, 
    {
      "type" : "Feature", 
      "geometry" : 
      {
        "type" : "Point", 
        "coordinates" : [
          -78.328418, 44.083107
        ]
      }, 
      "properties" : {
        "Name" : "Community Works in Hamilton Township - Food Bank", 
        "Address" : "Bewdley Community Centre; 7060 Lake St", 
        "City" : "Hamilton (Township)", 
        "Province" : "ON", 
        "Hours" : "Thu 10 am-3 pmDates: All Year", 
        "Phone" : "905-797-2535 ext 22", 
        "Description" : "\u003cb\u003eCOVID19\u003c/b\u003e Food bank is open as a drive through only. * Pre-packaged food * Not accepting clothing, toys or household items donations at this time.Provides food only at this time. The clothing, children's toys and small household items operation is suspended until after the Community Centre is re-opened.", 
        "Eligbility" : "No restrictions", 
        "DisabilityAccess" : "Fully Accessible"
      }
    }, 
    {
      "type" : "Feature", 
      "geometry" : 
      {
        "type" : "Point", 
        "coordinates" : [
          -77.958762, 44.311008
        ]
      }, 
      "properties" : {
        "Name" : "Hastings & Roseneath Ministerial Food Bank - Hastings & Roseneath Ministerial Food Bank", 
        "Address" : "Trinity United Church; 3 Albert St W", 
        "City" : "Trent Hills", 
        "Province" : "ON", 
        "Hours" : "First three Tue of the month 1 pm-2:30 pm, 6:30 pm-8 pmFood donations (please check expiry date) to be made outside food bank opening hours, by arrangement.Dates: Jan-mid Dec", 
        "Phone" : null, 
        "Description" : "\u003cb\u003eCOVID19\u003c/b\u003e Service by appointment only. Call 705-696-2295.\n\u003cbr\u003e\n\u003cbr\u003eFood bank provides clients with food for approximately 4 days.\n\u003cbr\u003e* Clients are asked to use the food bank only once a month\n\u003cbr\u003e* Occasionally baby food or formula is available", 
        "Eligbility" : "No restrictions", 
        "DisabilityAccess" : "Fully Accessible"
      }
    }, 
    {
      "type" : "Feature", 
      "geometry" : 
      {
        "type" : "Point", 
        "coordinates" : [
          -78.195217, 43.970337
        ]
      }, 
      "properties" : {
        "Name" : "Meals on Wheels", 
        "Address" : "1005 Elgin St W", 
        "City" : "Cobourg", 
        "Province" : "ON", 
        "Hours" : null, 
        "Phone" : "1-866-514-5774.", 
        "Description" : "Community Care Northumberland. Currently delivering frozen meals only.", 
        "Eligbility" : null, 
        "DisabilityAccess" : null
      }
    }, 
    {
      "type" : "Feature", 
      "geometry" : 
      {
        "type" : "Point", 
        "coordinates" : [
          -78.183294, 43.965653
        ]
      }, 
      "properties" : {
        "Name" : "Northumberland County Food For All", 
        "Address" : "600 William St", 
        "City" : "Cobourg", 
        "Province" : "ON", 
        "Hours" : "Mon-Fri 9 am-1 pm Dates: All Year", 
        "Phone" : null, 
        "Description" : null, 
        "Eligbility" : null, 
        "DisabilityAccess" : null
      }
    }, 
    {
      "type" : "Feature", 
      "geometry" : 
      {
        "type" : "Point", 
        "coordinates" : [
          -78.160374, 43.973006
        ]
      }, 
      "properties" : {
        "Name" : "Northumberland Fare Share Food Banks - Northumberland Fare Share Food Banks, Cobourg", 
        "Address" : "700 D'Arcy St", 
        "City" : "Cobourg", 
        "Province" : "ON", 
        "Hours" : "Wed 10 am-12 noon, 6 pm-8 pm * Fri 10 am-12 noonDates: All Year", 
        "Phone" : "905-372-5308", 
        "Description" : "\u003cb\u003eCOVID19\u003c/b\u003e Delivery Model has changed. * Pick-up outside food bank only.Provide emergency food supplies on Wed and Fri Food donations accepted at the following Cobourg locations:* Metro (Northumberland Mall), 1111 Elgin St W* St Michael's Rectory, 379 Division St* Kawartha Credit Union, 2 King St W* Fisher's Foodland, 990 Division St* Cobourg Fire Department, 111 Elgin St E* David's No Frills, 500 Division St* York Super IDA Pharmacy, 500 Division St", 
        "Eligbility" : "No restrictions", 
        "DisabilityAccess" : "Not Accessible"
      }
    }, 
    {
      "type" : "Feature", 
      "geometry" : 
      {
        "type" : "Point", 
        "coordinates" : [
          -78.29742, 43.953819
        ]
      }, 
      "properties" : {
        "Name" : "Northumberland Fare Share Food Banks - Northumberland Fare Share Food Banks, Port Hope", 
        "Address" : "Port Hope United Church; 34 South St", 
        "City" : "Port Hope", 
        "Province" : "ON", 
        "Hours" : "Wed 10 am-12 noon, 6 pm-8 pmDates: All YearMeetings: Board meetings are held in alternating communities on the second Thu of the month", 
        "Phone" : "905-885-6674", 
        "Description" : "\u003cb\u003eCOVID19\u003c/b\u003e Delivery Model has changed.* Pick-up outside food bank only.Provide emergency food supplies Wed to those in need.Food donations accepted at the following Port Hope locations: * Davis Your Independent Grocer, 20 Jocelyn St., Port hope* Port Hope United Church, 34 South St.* Food Basics, 125 Hope St S* Giant Tiger, 145 Peter St, Port Hope", 
        "Eligbility" : "No restrictions", 
        "DisabilityAccess" : "Partially Accessible - Parking - Useable; Entrance - Useable; Washrooms - Not Accessible"
      }
    }, 
    {
      "type" : "Feature", 
      "geometry" : 
      {
        "type" : "Point", 
        "coordinates" : [
          -78.288489, 43.948906
        ]
      }, 
      "properties" : {
        "Name" : "Port Hope Salvation Army Community and Family Services", 
        "Address" : "100 Peter Street, Upper Level", 
        "City" : "Port Hope", 
        "Province" : "ON", 
        "Hours" : "By appointment only Monday & Friday 9am - 1pm", 
        "Phone" : "905-885-2323", 
        "Description" : null, 
        "Eligbility" : null, 
        "DisabilityAccess" : null
      }
    }, 
    {
      "type" : "Feature", 
      "geometry" : 
      {
        "type" : "Point", 
        "coordinates" : [
          -78.163317, 43.961224
        ]
      }, 
      "properties" : {
        "Name" : "Salvation Army (The) - Community Food Cupboard", 
        "Address" : "66 Swayne St", 
        "City" : "Cobourg", 
        "Province" : "ON", 
        "Hours" : "\u003cb\u003eCOVID19\u003c/b\u003e  Program suspendedDates: Year round", 
        "Phone" : "905-373-9440", 
        "Description" : "\u003cb\u003eCOVID19\u003c/b\u003eFood cupboard program is currently suspended. The Food Cupboard's purpose is to make food accessible. * For those using the food cupboard proof of address is required (i.e. utility bill) * Bring your own bags.", 
        "Eligbility" : "Everyone must provide proof of address. Under the age of 18 must have proof of independence and address", 
        "DisabilityAccess" : "Fully Accessible"
      }
    }, 
    {
      "type" : "Feature", 
      "geometry" : 
      {
        "type" : "Point", 
        "coordinates" : [
          -77.793193, 44.310276
        ]
      }, 
      "properties" : {
        "Name" : "Salvation Army Community and Family Service", 
        "Address" : "61B Ranney Street North", 
        "City" : "Campbellford", 
        "Province" : "ON", 
        "Hours" : "Thursday, 10:00 am - 1:00 pm", 
        "Phone" : "705-653-4185", 
        "Description" : null, 
        "Eligbility" : null, 
        "DisabilityAccess" : null
      }
    }, 
    {
      "type" : "Feature", 
      "geometry" : 
      {
        "type" : "Point", 
        "coordinates" : [
          -78.167767, 43.964014
        ]
      }, 
      "properties" : {
        "Name" : "Society of St. Vincent de Paul", 
        "Address" : "379 Division St S", 
        "City" : "Cobourg", 
        "Province" : "ON", 
        "Hours" : null, 
        "Phone" : "905-373-2940", 
        "Description" : "Provides emergency food vouchers for families in need.", 
        "Eligbility" : null, 
        "DisabilityAccess" : null
      }
    }
  ]
}